[
  { "id": "mexico-city", "feedName": "Mexico City Stadium", "fifaName": "Estadio Azteca / Mexico City Stadium", "commonName": "Estadio Azteca (Banorte)", "city": "Mexiko-Stadt", "country": "Mexiko", "countryFlag": "mx", "capacity": 80824, "tz": "America/Mexico_City", "diffMesz": -8, "lat": 19.3029, "lon": -99.1505 },
  { "id": "guadalajara", "feedName": "Guadalajara Stadium", "fifaName": "Estadio Guadalajara", "commonName": "Estadio Akron", "city": "Zapopan (Guadalajara)", "country": "Mexiko", "countryFlag": "mx", "capacity": 45664, "tz": "America/Mexico_City", "diffMesz": -8, "lat": 20.6817, "lon": -103.4626 },
  { "id": "monterrey", "feedName": "Monterrey Stadium", "fifaName": "Estadio Monterrey", "commonName": "Estadio BBVA", "city": "Guadalupe (Monterrey)", "country": "Mexiko", "countryFlag": "mx", "capacity": 51243, "tz": "America/Monterrey", "diffMesz": -8, "lat": 25.6692, "lon": -100.2447 },
  { "id": "toronto", "feedName": "Toronto Stadium", "fifaName": "Toronto Stadium", "commonName": "BMO Field", "city": "Toronto, ON", "country": "Kanada", "countryFlag": "ca", "capacity": 43036, "tz": "America/Toronto", "diffMesz": -6, "lat": 43.6332, "lon": -79.4186 },
  { "id": "vancouver", "feedName": "BC Place Vancouver", "fifaName": "BC Place Vancouver", "commonName": "BC Place", "city": "Vancouver, BC", "country": "Kanada", "countryFlag": "ca", "capacity": 52497, "tz": "America/Vancouver", "diffMesz": -9, "lat": 49.2767, "lon": -123.1119 },
  { "id": "new-york-new-jersey", "feedName": "New York/New Jersey Stadium", "fifaName": "New York New Jersey Stadium", "commonName": "MetLife Stadium", "city": "East Rutherford, NJ", "country": "USA", "countryFlag": "us", "capacity": 80663, "tz": "America/New_York", "diffMesz": -6, "lat": 40.8135, "lon": -74.0745 },
  { "id": "dallas", "feedName": "Dallas Stadium", "fifaName": "Dallas Stadium", "commonName": "AT&T Stadium", "city": "Arlington, TX", "country": "USA", "countryFlag": "us", "capacity": 70649, "tz": "America/Chicago", "diffMesz": -7, "lat": 32.7473, "lon": -97.0945 },
  { "id": "los-angeles", "feedName": "Los Angeles Stadium", "fifaName": "Los Angeles Stadium", "commonName": "SoFi Stadium", "city": "Inglewood, CA", "country": "USA", "countryFlag": "us", "capacity": 70492, "tz": "America/Los_Angeles", "diffMesz": -9, "lat": 33.9535, "lon": -118.3392 },
  { "id": "kansas-city", "feedName": "Kansas City Stadium", "fifaName": "Kansas City Stadium", "commonName": "Arrowhead Stadium", "city": "Kansas City, MO", "country": "USA", "countryFlag": "us", "capacity": 69045, "tz": "America/Chicago", "diffMesz": -7, "lat": 39.0489, "lon": -94.4839 },
  { "id": "san-francisco", "feedName": "San Francisco Bay Area Stadium", "fifaName": "San Francisco Bay Area Stadium", "commonName": "Levi's Stadium", "city": "Santa Clara, CA", "country": "USA", "countryFlag": "us", "capacity": 68827, "tz": "America/Los_Angeles", "diffMesz": -9, "lat": 37.4033, "lon": -121.9694 },
  { "id": "houston", "feedName": "Houston Stadium", "fifaName": "Houston Stadium", "commonName": "NRG Stadium", "city": "Houston, TX", "country": "USA", "countryFlag": "us", "capacity": 68777, "tz": "America/Chicago", "diffMesz": -7, "lat": 29.6847, "lon": -95.4107 },
  { "id": "philadelphia", "feedName": "Philadelphia Stadium", "fifaName": "Philadelphia Stadium", "commonName": "Lincoln Financial Field", "city": "Philadelphia, PA", "country": "USA", "countryFlag": "us", "capacity": 68324, "tz": "America/New_York", "diffMesz": -6, "lat": 39.9008, "lon": -75.1675 },
  { "id": "atlanta", "feedName": "Atlanta Stadium", "fifaName": "Atlanta Stadium", "commonName": "Mercedes-Benz Stadium", "city": "Atlanta, GA", "country": "USA", "countryFlag": "us", "capacity": 68239, "tz": "America/New_York", "diffMesz": -6, "lat": 33.7554, "lon": -84.4009 },
  { "id": "seattle", "feedName": "Seattle Stadium", "fifaName": "Seattle Stadium", "commonName": "Lumen Field", "city": "Seattle, WA", "country": "USA", "countryFlag": "us", "capacity": 66925, "tz": "America/Los_Angeles", "diffMesz": -9, "lat": 47.5952, "lon": -122.3316 },
  { "id": "miami", "feedName": "Miami Stadium", "fifaName": "Miami Stadium", "commonName": "Hard Rock Stadium", "city": "Miami Gardens, FL", "country": "USA", "countryFlag": "us", "capacity": 64478, "tz": "America/New_York", "diffMesz": -6, "lat": 25.958, "lon": -80.2389 },
  { "id": "boston", "feedName": "Boston Stadium", "fifaName": "Boston Stadium", "commonName": "Gillette Stadium", "city": "Foxborough, MA", "country": "USA", "countryFlag": "us", "capacity": 64146, "tz": "America/New_York", "diffMesz": -6, "lat": 42.0909, "lon": -71.2643 }
]
